{"type":"FeatureCollection","features":[{"type":"Feature","properties":{"place":"csulb","color":"yellow"},"geometry":{"type":"Point","coordinates":[-118.114013671875,33.78271432410479]}},{"type":"Feature","properties":{"place":"stanford","color":"red"},"geometry":{"type":"Point","coordinates":[-122.16676712036133,37.42675202378011]}},{"type":"Feature","properties":{"place":"harvard-westlake","color":"red"},"geometry":{"type":"Point","coordinates":[-118.4120500087738,34.14050916436566]}},{"type":"Feature","properties":{"place":"berkeley","color":"blue"},"geometry":{"type":"Point","coordinates":[-122.24933624267578,37.874921144262174]}},{"type":"Feature","properties":{"place":"UNLV","color":"red"},"geometry":{"type":"Point","coordinates":[-115.14341354370116,36.107022642781146]}},{"type":"Feature","properties":{"place":"the meadows school","color":"gray "},"geometry":{"type":"Point","coordinates":[-115.28318881988525,36.19491908694158]}},{"type":"Feature","properties":{"place":"wake forest","color":"gold"},"geometry":{"type":"Point","coordinates":[-80.27740001678467,36.133646274590475]}},{"type":"Feature","properties":{"place":"UT Austin","color":"orange"},"geometry":{"type":"Point","coordinates":[-97.73566246032715,30.28419634606847]}},{"type":"Feature","properties":{"place":"alta high school","color":"red"},"geometry":{"type":"Point","coordinates":[-111.86094760894774,40.54884702483733]}},{"type":"Feature","properties":{"place":"loyola high school","color":"blue"},"geometry":{"type":"Point","coordinates":[-118.2956314086914,34.04469442222683]}},{"type":"Feature","properties":{"place":"marlborough school","color":"red"},"geometry":{"type":"Point","coordinates":[-118.32683086395265,34.070044699136744]}},{"type":"Feature","properties":{"place":"USC","color":"red"},"geometry":{"type":"Point","coordinates":[-118.28679084777832,34.0211506324799]}},{"type":"Feature","properties":{"place":"ASU","color":"red"},"geometry":{"type":"Point","coordinates":[-111.93222999572754,33.419120165070545]}}]}